{"type": "FeatureCollection", "features": [{"type":"Feature","geometry":{"type":"Point","coordinates":[19.986984,4.621155]},"properties":{"cartodb_id":3,"confirmed":1,"size":3,"id":3,"type":"Castle","name":"Rosby"}},{"type":"Feature","geometry":{"type":"Point","coordinates":[19.07823,3.953606]},"properties":{"cartodb_id":1,"confirmed":1,"size":5,"id":1,"type":"City","name":"King's Landing"}},{"type":"Feature","geometry":{"type":"Point","coordinates":[18.802566,4.487995]},"properties":{"cartodb_id":2,"confirmed":0,"size":3,"id":2,"type":"Castle","name":"Hayford Castle"}},{"type":"Feature","geometry":{"type":"Point","coordinates":[20.398143,5.041658]},"properties":{"cartodb_id":4,"confirmed":0,"size":1,"id":4,"type":"Other","name":"Old Stone Bridge Inn"}},{"type":"Feature","geometry":{"type":"Point","coordinates":[18.650718,5.527573]},"properties":{"cartodb_id":5,"confirmed":0,"size":1,"id":5,"type":"Other","name":"Brindlewood"}},{"type":"Feature","geometry":{"type":"Point","coordinates":[18.856297,6.415302]},"properties":{"cartodb_id":6,"confirmed":1,"size":3,"id":6,"type":"Castle","name":"Sow's Horn"}},{"type":"Feature","geometry":{"type":"Point","coordinates":[16.791159,2.33642]},"properties":{"cartodb_id":7,"confirmed":1,"size":4,"id":7,"type":"Town","name":"Tumbleton"}},{"type":"Feature","geometry":{"type":"Point","coordinates":[14.23777,8.452407]},"properties":{"cartodb_id":8,"confirmed":1,"size":2,"id":8,"type":"Ruin","name":"High Heart"}},{"type":"Feature","geometry":{"type":"Point","coordinates":[20.9191,5.838278]},"properties":{"cartodb_id":9,"confirmed":1,"size":4,"id":9,"type":"Town","name":"Duskendale"}},{"type":"Feature","geometry":{"type":"Point","coordinates":[19.601523,7.314712]},"properties":{"cartodb_id":10,"confirmed":1,"size":3,"id":10,"type":"Castle","name":"Antlers"}},{"type":"Feature","geometry":{"type":"Point","coordinates":[19.592178,5.072028]},"properties":{"cartodb_id":11,"confirmed":0,"size":3,"id":11,"type":"Castle","name":"Stokeworth"}},{"type":"Feature","geometry":{"type":"Point","coordinates":[18.508214,6.268126]},"properties":{"cartodb_id":12,"confirmed":0,"size":1,"id":12,"type":"Other","name":"Ivy Inn"}},{"type":"Feature","geometry":{"type":"Point","coordinates":[17.62983,7.006343]},"properties":{"cartodb_id":13,"confirmed":0,"size":1,"id":13,"type":"Other","name":"Village"}},{"type":"Feature","geometry":{"type":"Point","coordinates":[16.807512,6.464361]},"properties":{"cartodb_id":14,"confirmed":0,"size":1,"id":14,"type":"Other","name":"Holdfast"}},{"type":"Feature","geometry":{"type":"Point","coordinates":[16.900957,8.379987]},"properties":{"cartodb_id":15,"confirmed":1,"size":3,"id":15,"type":"Castle","name":"Harrenhal"}},{"type":"Feature","geometry":{"type":"Point","coordinates":[16.396353,7.922105]},"properties":{"cartodb_id":16,"confirmed":0,"size":1,"id":16,"type":"Other","name":"Rushing Falls"}},{"type":"Feature","geometry":{"type":"Point","coordinates":[14.648929,6.847486]},"properties":{"cartodb_id":17,"confirmed":0,"size":1,"id":17,"type":"Other","name":"Tumblers Falls"}},{"type":"Feature","geometry":{"type":"Point","coordinates":[51.365872,-12.423244]},"properties":{"cartodb_id":210,"confirmed":1,"size":1,"id":210,"type":"Other","name":null}},{"type":"Feature","geometry":{"type":"Point","coordinates":[13.742511,6.987654]},"properties":{"cartodb_id":20,"confirmed":0,"size":1,"id":20,"type":"Other","name":"Sept"}},{"type":"Feature","geometry":{"type":"Point","coordinates":[53.991681,-11.362641]},"properties":{"cartodb_id":211,"confirmed":1,"size":2,"id":211,"type":"Ruin","name":null}},{"type":"Feature","geometry":{"type":"Point","coordinates":[13.994813,6.137303]},"properties":{"cartodb_id":18,"confirmed":1,"size":4,"id":18,"type":"Town","name":"Stoney Sept"}},{"type":"Feature","geometry":{"type":"Point","coordinates":[13.406108,6.520428]},"properties":{"cartodb_id":19,"confirmed":0,"size":1,"id":19,"type":"Other","name":"Hollow Hill"}},{"type":"Feature","geometry":{"type":"Point","coordinates":[14.05088,8.015551]},"properties":{"cartodb_id":21,"confirmed":1,"size":3,"id":21,"type":"Castle","name":"Acorn Hall"}},{"type":"Feature","geometry":{"type":"Point","coordinates":[12.985605,7.604392]},"properties":{"cartodb_id":22,"confirmed":1,"size":3,"id":22,"type":"Castle","name":"Pinkmaiden"}},{"type":"Feature","geometry":{"type":"Point","coordinates":[12.742647,7.239956]},"properties":{"cartodb_id":23,"confirmed":0,"size":1,"id":23,"type":"Other","name":"Mummer's Ford"}},{"type":"Feature","geometry":{"type":"Point","coordinates":[12.751992,7.043721]},"properties":{"cartodb_id":24,"confirmed":0,"size":1,"id":24,"type":"Other","name":"Sherrer"}},{"type":"Feature","geometry":{"type":"Point","coordinates":[12.58379,7.081099]},"properties":{"cartodb_id":25,"confirmed":0,"size":1,"id":25,"type":"Other","name":"Wendish Town"}},{"type":"Feature","geometry":{"type":"Point","coordinates":[14.658273,8.679011]},"properties":{"cartodb_id":26,"confirmed":0,"size":1,"id":26,"type":"Other","name":"Lord Goodbrook's Village"}},{"type":"Feature","geometry":{"type":"Point","coordinates":[14.200392,8.763112]},"properties":{"cartodb_id":27,"confirmed":0,"size":1,"id":27,"type":"Other","name":"Sallydance"}},{"type":"Feature","geometry":{"type":"Point","coordinates":[14.032191,9.006069]},"properties":{"cartodb_id":28,"confirmed":0,"size":1,"id":28,"type":"Other","name":"Lady of the Leaves"}},{"type":"Feature","geometry":{"type":"Point","coordinates":[14.611551,9.426573]},"properties":{"cartodb_id":29,"confirmed":0,"size":1,"id":29,"type":"Other","name":"Lord Lychester's Keep"}},{"type":"Feature","geometry":{"type":"Point","coordinates":[14.751718,9.604118]},"properties":{"cartodb_id":30,"confirmed":0,"size":1,"id":30,"type":"Other","name":"Unnamed Village"}},{"type":"Feature","geometry":{"type":"Point","coordinates":[13.835956,9.819042]},"properties":{"cartodb_id":31,"confirmed":0,"size":1,"id":31,"type":"Other","name":"Inn (They Ley with Lions)"}},{"type":"Feature","geometry":{"type":"Point","coordinates":[13.312663,9.491984]},"properties":{"cartodb_id":32,"confirmed":1,"size":3,"id":32,"type":"City","name":"Riverrun"}},{"type":"Feature","geometry":{"type":"Point","coordinates":[15.798304,8.837868]},"properties":{"cartodb_id":33,"confirmed":0,"size":3,"id":33,"type":"Castle","name":"Raventree Hall"}},{"type":"Feature","geometry":{"type":"Point","coordinates":[17.377528,9.370505]},"properties":{"cartodb_id":34,"confirmed":0,"size":3,"id":34,"type":"Castle","name":"Darry"}},{"type":"Feature","geometry":{"type":"Point","coordinates":[14.873197,10.276924]},"properties":{"cartodb_id":35,"confirmed":1,"size":1,"id":35,"type":"Other","name":"Inn of the Kneeling Man"}},{"type":"Feature","geometry":{"type":"Point","coordinates":[16.013228,10.361024]},"properties":{"cartodb_id":36,"confirmed":0,"size":1,"id":36,"type":"Other","name":"BWB hideout"}},{"type":"Feature","geometry":{"type":"Point","coordinates":[16.882268,9.725597]},"properties":{"cartodb_id":37,"confirmed":0,"size":1,"id":37,"type":"Other","name":"Lort Harroway's Town"}},{"type":"Feature","geometry":{"type":"Point","coordinates":[17.34015,9.819042]},"properties":{"cartodb_id":38,"confirmed":0,"size":1,"id":38,"type":"Other","name":"Crossroads Inn"}},{"type":"Feature","geometry":{"type":"Point","coordinates":[19.181019,9.099514]},"properties":{"cartodb_id":39,"confirmed":1,"size":1,"id":39,"type":"Other","name":"Saltpans"}},{"type":"Feature","geometry":{"type":"Point","coordinates":[19.227742,8.931313]},"properties":{"cartodb_id":40,"confirmed":1,"size":1,"id":40,"type":"Other","name":"Quiet Isle"}},{"type":"Feature","geometry":{"type":"Point","coordinates":[21.638627,9.09017]},"properties":{"cartodb_id":41,"confirmed":1,"size":3,"id":41,"type":"Castle","name":"Wickenden"}},{"type":"Feature","geometry":{"type":"Point","coordinates":[20.171538,8.230474]},"properties":{"cartodb_id":42,"confirmed":1,"size":4,"id":42,"type":"Town","name":"Maidenpool"}},{"type":"Feature","geometry":{"type":"Point","coordinates":[22.068475,7.267989]},"properties":{"cartodb_id":43,"confirmed":1,"size":3,"id":43,"type":"Castle","name":"Rook's Rest"}},{"type":"Feature","geometry":{"type":"Point","coordinates":[23.918689,9.183615]},"properties":{"cartodb_id":44,"confirmed":1,"size":3,"id":44,"type":"Castle","name":"Dyre Den"}},{"type":"Feature","geometry":{"type":"Point","coordinates":[24.58215,8.482776]},"properties":{"cartodb_id":45,"confirmed":1,"size":2,"id":45,"type":"Ruin","name":"The Whispers"}},{"type":"Feature","geometry":{"type":"Point","coordinates":[24.348537,7.053065]},"properties":{"cartodb_id":46,"confirmed":1,"size":3,"id":46,"type":"City","name":"Dragonstone"}},{"type":"Feature","geometry":{"type":"Point","coordinates":[23.806555,5.744833]},"properties":{"cartodb_id":47,"confirmed":1,"size":3,"id":47,"type":"Castle","name":"Sharp Point"}},{"type":"Feature","geometry":{"type":"Point","coordinates":[24.208369,4.950549]},"properties":{"cartodb_id":48,"confirmed":1,"size":3,"id":48,"type":"Castle","name":"Stonedance"}},{"type":"Feature","geometry":{"type":"Point","coordinates":[22.74128,1.549145]},"properties":{"cartodb_id":49,"confirmed":1,"size":3,"id":49,"type":"Castle","name":"Haystack Hall"}},{"type":"Feature","geometry":{"type":"Point","coordinates":[22.040442,1.296843]},"properties":{"cartodb_id":50,"confirmed":1,"size":3,"id":50,"type":"Castle","name":"Bronzegate"}},{"type":"Feature","geometry":{"type":"Point","coordinates":[21.283536,0.427803]},"properties":{"cartodb_id":51,"confirmed":1,"size":3,"id":51,"type":"Castle","name":"Felwood"}},{"type":"Feature","geometry":{"type":"Point","coordinates":[22.713247,-0.656161]},"properties":{"cartodb_id":52,"confirmed":1,"size":3,"id":52,"type":"City","name":"Storm's End"}},{"type":"Feature","geometry":{"type":"Point","coordinates":[21.816173,-1.263555]},"properties":{"cartodb_id":53,"confirmed":1,"size":3,"id":53,"type":"Castle","name":"Griffin's Roost"}},{"type":"Feature","geometry":{"type":"Point","coordinates":[60.663666,-16.525487]},"properties":{"cartodb_id":219,"confirmed":1,"size":2,"id":219,"type":"Ruin","name":null}},{"type":"Feature","geometry":{"type":"Point","coordinates":[25.05872,-1.992427]},"properties":{"cartodb_id":54,"confirmed":1,"size":3,"id":54,"type":"Castle","name":"Rain House"}},{"type":"Feature","geometry":{"type":"Point","coordinates":[24.797074,-4.085599]},"properties":{"cartodb_id":55,"confirmed":1,"size":3,"id":55,"type":"Castle","name":"Greenstone"}},{"type":"Feature","geometry":{"type":"Point","coordinates":[22.872104,-4.590203]},"properties":{"cartodb_id":56,"confirmed":1,"size":3,"id":56,"type":"Castle","name":"Weeping Tower"}},{"type":"Feature","geometry":{"type":"Point","coordinates":[23.002927,-3.805263]},"properties":{"cartodb_id":57,"confirmed":1,"size":3,"id":57,"type":"Castle","name":"Mistwood"}},{"type":"Feature","geometry":{"type":"Point","coordinates":[20.040715,-3.235248]},"properties":{"cartodb_id":58,"confirmed":1,"size":3,"id":58,"type":"Castle","name":"Stonehelm"}},{"type":"Feature","geometry":{"type":"Point","coordinates":[21.077956,-2.244729]},"properties":{"cartodb_id":59,"confirmed":1,"size":3,"id":59,"type":"Castle","name":"Crow's Nest"}},{"type":"Feature","geometry":{"type":"Point","coordinates":[20.283672,-1.179454]},"properties":{"cartodb_id":60,"confirmed":0,"size":4,"id":60,"type":"Town","name":"Grandview"}},{"type":"Feature","geometry":{"type":"Point","coordinates":[18.49887,-1.702747]},"properties":{"cartodb_id":61,"confirmed":1,"size":2,"id":61,"type":"Ruin","name":"Summerhall"}},{"type":"Feature","geometry":{"type":"Point","coordinates":[17.863443,-2.852123]},"properties":{"cartodb_id":62,"confirmed":1,"size":3,"id":62,"type":"Castle","name":"Blackhaven"}},{"type":"Feature","geometry":{"type":"Point","coordinates":[18.601659,0.923062]},"properties":{"cartodb_id":63,"confirmed":0,"size":4,"id":63,"type":"Town","name":"Fawnton"}},{"type":"Feature","geometry":{"type":"Point","coordinates":[17.13457,0.175501]},"properties":{"cartodb_id":64,"confirmed":1,"size":3,"id":64,"type":"Castle","name":"Grassy Vale"}},{"type":"Feature","geometry":{"type":"Point","coordinates":[17.779342,-4.291178]},"properties":{"cartodb_id":65,"confirmed":1,"size":3,"id":65,"type":"Castle","name":"Wyl"}},{"type":"Feature","geometry":{"type":"Point","coordinates":[19.321187,-6.169426]},"properties":{"cartodb_id":66,"confirmed":1,"size":3,"id":66,"type":"Castle","name":"Ghaston Grey"}},{"type":"Feature","geometry":{"type":"Point","coordinates":[16.872924,-6.926332]},"properties":{"cartodb_id":67,"confirmed":1,"size":3,"id":67,"type":"Castle","name":"Yronwood"}},{"type":"Feature","geometry":{"type":"Point","coordinates":[14.854508,-4.805127]},"properties":{"cartodb_id":68,"confirmed":1,"size":3,"id":68,"type":"Castle","name":"Vulture's Roost"}},{"type":"Feature","geometry":{"type":"Point","coordinates":[13.611687,-4.272489]},"properties":{"cartodb_id":69,"confirmed":1,"size":3,"id":69,"type":"Castle","name":"Nightsong"}},{"type":"Feature","geometry":{"type":"Point","coordinates":[14.648929,-1.852259]},"properties":{"cartodb_id":70,"confirmed":1,"size":3,"id":70,"type":"Castle","name":"Ashford"}},{"type":"Feature","geometry":{"type":"Point","coordinates":[12.938882,-1.300933]},"properties":{"cartodb_id":71,"confirmed":1,"size":3,"id":71,"type":"Castle","name":"Cider Hall"}},{"type":"Feature","geometry":{"type":"Point","coordinates":[10.714887,-2.768022]},"properties":{"cartodb_id":72,"confirmed":1,"size":3,"id":72,"type":"City","name":"Highgarden"}},{"type":"Feature","geometry":{"type":"Point","coordinates":[10.798988,-4.44069]},"properties":{"cartodb_id":73,"confirmed":1,"size":3,"id":73,"type":"Castle","name":"Horn Hill"}},{"type":"Feature","geometry":{"type":"Point","coordinates":[7.920877,-4.524791]},"properties":{"cartodb_id":74,"confirmed":1,"size":3,"id":74,"type":"Castle","name":"Brightwater Keep"}},{"type":"Feature","geometry":{"type":"Point","coordinates":[6.453787,-4.412657]},"properties":{"cartodb_id":75,"confirmed":1,"size":3,"id":75,"type":"Castle","name":"Bandallon"}},{"type":"Feature","geometry":{"type":"Point","coordinates":[8.154489,-5.431209]},"properties":{"cartodb_id":76,"confirmed":1,"size":3,"id":76,"type":"Castle","name":"Honeyholt"}},{"type":"Feature","geometry":{"type":"Point","coordinates":[7.752675,-6.57124]},"properties":{"cartodb_id":77,"confirmed":1,"size":5,"id":77,"type":"City","name":"Oldtown"}},{"type":"Feature","geometry":{"type":"Point","coordinates":[6.350998,-7.244046]},"properties":{"cartodb_id":78,"confirmed":1,"size":3,"id":78,"type":"Castle","name":"Blackcrown"}},{"type":"Feature","geometry":{"type":"Point","coordinates":[6.995769,-8.066363]},"properties":{"cartodb_id":79,"confirmed":1,"size":3,"id":79,"type":"Castle","name":"Three Towers"}},{"type":"Feature","geometry":{"type":"Point","coordinates":[9.920603,-6.823542]},"properties":{"cartodb_id":80,"confirmed":1,"size":3,"id":80,"type":"Castle","name":"Uplands"}},{"type":"Feature","geometry":{"type":"Point","coordinates":[9.145008,-9.729687]},"properties":{"cartodb_id":81,"confirmed":1,"size":3,"id":81,"type":"Castle","name":"Sunflower Hall"}},{"type":"Feature","geometry":{"type":"Point","coordinates":[12.144598,-6.627307]},"properties":{"cartodb_id":82,"confirmed":1,"size":3,"id":82,"type":"Castle","name":"Blackmont"}},{"type":"Feature","geometry":{"type":"Point","coordinates":[12.200665,-7.346835]},"properties":{"cartodb_id":83,"confirmed":1,"size":3,"id":83,"type":"Castle","name":"High Hermitage"}},{"type":"Feature","geometry":{"type":"Point","coordinates":[11.443759,-8.169153]},"properties":{"cartodb_id":84,"confirmed":1,"size":3,"id":84,"type":"Castle","name":"Starfall"}},{"type":"Feature","geometry":{"type":"Point","coordinates":[13.667754,-9.430662]},"properties":{"cartodb_id":85,"confirmed":1,"size":3,"id":85,"type":"Castle","name":"Sandstone"}},{"type":"Feature","geometry":{"type":"Point","coordinates":[14.163014,-7.290768]},"properties":{"cartodb_id":86,"confirmed":1,"size":3,"id":86,"type":"Castle","name":"Skyreach"}},{"type":"Feature","geometry":{"type":"Point","coordinates":[14.331215,-6.029258]},"properties":{"cartodb_id":87,"confirmed":1,"size":3,"id":87,"type":"Castle","name":"Kingsgrave"}},{"type":"Feature","geometry":{"type":"Point","coordinates":[14.368593,-5.132185]},"properties":{"cartodb_id":88,"confirmed":1,"size":1,"id":88,"type":"Other","name":"Tower of Joy"}},{"type":"Feature","geometry":{"type":"Point","coordinates":[16.200119,-9.140982]},"properties":{"cartodb_id":89,"confirmed":1,"size":3,"id":89,"type":"Castle","name":"Hellholt"}},{"type":"Feature","geometry":{"type":"Point","coordinates":[20.395807,-9.309184]},"properties":{"cartodb_id":90,"confirmed":1,"size":3,"id":90,"type":"Castle","name":"Vaith"}},{"type":"Feature","geometry":{"type":"Point","coordinates":[21.358292,-10.112812]},"properties":{"cartodb_id":91,"confirmed":1,"size":3,"id":91,"type":"Castle","name":"Salt Shore"}},{"type":"Feature","geometry":{"type":"Point","coordinates":[21.470426,-8.542933]},"properties":{"cartodb_id":92,"confirmed":1,"size":3,"id":92,"type":"Castle","name":"Godsgrace"}},{"type":"Feature","geometry":{"type":"Point","coordinates":[20.638764,-7.290768]},"properties":{"cartodb_id":93,"confirmed":1,"size":3,"id":93,"type":"Castle","name":"The Tor"}},{"type":"Feature","geometry":{"type":"Point","coordinates":[23.834589,-7.449625]},"properties":{"cartodb_id":94,"confirmed":1,"size":3,"id":94,"type":"Castle","name":"Ghost Hill"}},{"type":"Feature","geometry":{"type":"Point","coordinates":[23.984101,-9.589519]},"properties":{"cartodb_id":95,"confirmed":1,"size":3,"id":95,"type":"Castle","name":"Lemonwood"}},{"type":"Feature","geometry":{"type":"Point","coordinates":[24.591495,-8.926059]},"properties":{"cartodb_id":96,"confirmed":1,"size":3,"id":96,"type":"City","name":"Sunspear"}},{"type":"Feature","geometry":{"type":"Point","coordinates":[24.049513,-9.103604]},"properties":{"cartodb_id":97,"confirmed":1,"size":4,"id":97,"type":"Town","name":"Planky Town"}},{"type":"Feature","geometry":{"type":"Point","coordinates":[24.722318,-8.720479]},"properties":{"cartodb_id":98,"confirmed":0,"size":1,"id":98,"type":"Other","name":"Water Gardens"}},{"type":"Feature","geometry":{"type":"Point","coordinates":[22.619802,-8.524244]},"properties":{"cartodb_id":99,"confirmed":0,"size":1,"id":99,"type":"Other","name":"Shandystone"}},{"type":"Feature","geometry":{"type":"Point","coordinates":[12.639858,-24.965922]},"properties":{"cartodb_id":100,"confirmed":0,"size":4,"id":100,"type":"Town","name":"Tall Trees Town"}},{"type":"Feature","geometry":{"type":"Point","coordinates":[14.130308,-0.226313]},"properties":{"cartodb_id":101,"confirmed":1,"size":3,"id":101,"type":"Castle","name":"Longtable"}},{"type":"Feature","geometry":{"type":"Point","coordinates":[14.419988,0.736172]},"properties":{"cartodb_id":102,"confirmed":1,"size":3,"id":102,"type":"Castle","name":"Bitterbridge"}},{"type":"Feature","geometry":{"type":"Point","coordinates":[10.775626,0.736172]},"properties":{"cartodb_id":103,"confirmed":1,"size":3,"id":103,"type":"Castle","name":"Goldengrove"}},{"type":"Feature","geometry":{"type":"Point","coordinates":[8.7759,1.474389]},"properties":{"cartodb_id":104,"confirmed":1,"size":3,"id":104,"type":"Castle","name":"Red Lake"}},{"type":"Feature","geometry":{"type":"Point","coordinates":[7.336844,-0.188935]},"properties":{"cartodb_id":105,"confirmed":1,"size":3,"id":105,"type":"Castle","name":"Old Oak"}},{"type":"Feature","geometry":{"type":"Point","coordinates":[6.54256,2.296706]},"properties":{"cartodb_id":106,"confirmed":1,"size":3,"id":106,"type":"Castle","name":"Crakehall"}},{"type":"Feature","geometry":{"type":"Point","coordinates":[8.542287,2.894755]},"properties":{"cartodb_id":107,"confirmed":1,"size":3,"id":107,"type":"Castle","name":"Cornfield"}},{"type":"Feature","geometry":{"type":"Point","coordinates":[10.710215,3.632972]},"properties":{"cartodb_id":108,"confirmed":1,"size":3,"id":108,"type":"Castle","name":"Silverhill"}},{"type":"Feature","geometry":{"type":"Point","coordinates":[9.159025,4.053475]},"properties":{"cartodb_id":109,"confirmed":0,"size":3,"id":109,"type":"Castle","name":"Clegane Hall"}},{"type":"Feature","geometry":{"type":"Point","coordinates":[7.028475,4.016097]},"properties":{"cartodb_id":110,"confirmed":0,"size":2,"id":110,"type":"Ruin","name":"Tarbeck Hall"}},{"type":"Feature","geometry":{"type":"Point","coordinates":[7.364878,5.22154]},"properties":{"cartodb_id":111,"confirmed":1,"size":5,"id":111,"type":"City","name":"Lannisport"}},{"type":"Feature","geometry":{"type":"Point","coordinates":[5.701554,4.997272]},"properties":{"cartodb_id":112,"confirmed":1,"size":3,"id":112,"type":"Castle","name":"Feastfires"}},{"type":"Feature","geometry":{"type":"Point","coordinates":[5.972545,5.539254]},"properties":{"cartodb_id":113,"confirmed":1,"size":4,"id":113,"type":"Town","name":"Kayce"}},{"type":"Feature","geometry":{"type":"Point","coordinates":[8.112439,5.969101]},"properties":{"cartodb_id":114,"confirmed":0,"size":1,"id":114,"type":"Other","name":"Oxcross"}},{"type":"Feature","geometry":{"type":"Point","coordinates":[8.96279,6.455016]},"properties":{"cartodb_id":115,"confirmed":1,"size":3,"id":115,"type":"Castle","name":"Sarsfield"}},{"type":"Feature","geometry":{"type":"Point","coordinates":[11.270886,5.053339]},"properties":{"cartodb_id":116,"confirmed":1,"size":3,"id":116,"type":"Castle","name":"Deep Den"}},{"type":"Feature","geometry":{"type":"Point","coordinates":[11.055962,5.941068]},"properties":{"cartodb_id":117,"confirmed":1,"size":3,"id":117,"type":"Castle","name":"Hornvale"}},{"type":"Feature","geometry":{"type":"Point","coordinates":[10.644803,7.296023]},"properties":{"cartodb_id":118,"confirmed":1,"size":1,"id":118,"type":"Other","name":"Golden Tooth"}},{"type":"Feature","geometry":{"type":"Point","coordinates":[11.981069,7.996861]},"properties":{"cartodb_id":119,"confirmed":0,"size":3,"id":119,"type":"Castle","name":"Wayfarer's Rest"}},{"type":"Feature","geometry":{"type":"Point","coordinates":[8.420808,7.697837]},"properties":{"cartodb_id":120,"confirmed":0,"size":2,"id":120,"type":"Ruin","name":"Castamere"}},{"type":"Feature","geometry":{"type":"Point","coordinates":[9.177714,8.763112]},"properties":{"cartodb_id":121,"confirmed":0,"size":1,"id":121,"type":"Other","name":"Pendric Hills"}},{"type":"Feature","geometry":{"type":"Point","coordinates":[8.402119,8.809834]},"properties":{"cartodb_id":122,"confirmed":1,"size":3,"id":122,"type":"Castle","name":"The Crag"}},{"type":"Feature","geometry":{"type":"Point","coordinates":[8.402119,10.155445]},"properties":{"cartodb_id":123,"confirmed":1,"size":3,"id":123,"type":"Castle","name":"Banefort"}},{"type":"Feature","geometry":{"type":"Point","coordinates":[9.140336,8.015551]},"properties":{"cartodb_id":124,"confirmed":1,"size":3,"id":124,"type":"Castle","name":"Ashemark"}},{"type":"Feature","geometry":{"type":"Point","coordinates":[9.813141,9.501329]},"properties":{"cartodb_id":125,"confirmed":0,"size":1,"id":125,"type":"Other","name":"Nunn's Deep"}},{"type":"Feature","geometry":{"type":"Point","coordinates":[13.22389,8.538843]},"properties":{"cartodb_id":126,"confirmed":0,"size":1,"id":126,"type":"Other","name":"Stone Mill"}},{"type":"Feature","geometry":{"type":"Point","coordinates":[15.204927,9.435917]},"properties":{"cartodb_id":127,"confirmed":1,"size":3,"id":127,"type":"Castle","name":"Stone Hedge"}},{"type":"Feature","geometry":{"type":"Point","coordinates":[14.803113,11.482366]},"properties":{"cartodb_id":128,"confirmed":1,"size":4,"id":128,"type":"Town","name":"Fairmarket"}},{"type":"Feature","geometry":{"type":"Point","coordinates":[13.812594,11.977626]},"properties":{"cartodb_id":129,"confirmed":1,"size":2,"id":129,"type":"Ruin","name":"Oldstones"}},{"type":"Feature","geometry":{"type":"Point","coordinates":[17.541057,11.145964]},"properties":{"cartodb_id":130,"confirmed":0,"size":1,"id":130,"type":"Other","name":"Palisade Village"}},{"type":"Feature","geometry":{"type":"Point","coordinates":[19.867841,11.669257]},"properties":{"cartodb_id":131,"confirmed":1,"size":3,"id":131,"type":"Castle","name":"The Bloody Gate"}},{"type":"Feature","geometry":{"type":"Point","coordinates":[19.942598,12.211239]},"properties":{"cartodb_id":132,"confirmed":1,"size":3,"id":132,"type":"City","name":"The Eyrie"}},{"type":"Feature","geometry":{"type":"Point","coordinates":[18.307307,13.82784]},"properties":{"cartodb_id":133,"confirmed":1,"size":3,"id":133,"type":"Castle","name":"Strongsong"}},{"type":"Feature","geometry":{"type":"Point","coordinates":[20.839671,13.790462]},"properties":{"cartodb_id":134,"confirmed":1,"size":3,"id":134,"type":"Castle","name":"Heart's Home"}},{"type":"Feature","geometry":{"type":"Point","coordinates":[21.680678,10.949729]},"properties":{"cartodb_id":135,"confirmed":1,"size":3,"id":135,"type":"Castle","name":"Redfort"}},{"type":"Feature","geometry":{"type":"Point","coordinates":[22.624474,12.370095]},"properties":{"cartodb_id":136,"confirmed":1,"size":3,"id":136,"type":"Castle","name":"Ironoaks"}},{"type":"Feature","geometry":{"type":"Point","coordinates":[23.783194,12.706498]},"properties":{"cartodb_id":137,"confirmed":1,"size":3,"id":137,"type":"Castle","name":"Old Anchor"}},{"type":"Feature","geometry":{"type":"Point","coordinates":[24.969948,12.407473]},"properties":{"cartodb_id":138,"confirmed":1,"size":3,"id":138,"type":"Castle","name":"Runestone"}},{"type":"Feature","geometry":{"type":"Point","coordinates":[24.661579,11.529089]},"properties":{"cartodb_id":139,"confirmed":1,"size":5,"id":139,"type":"Town","name":"Gulltown"}},{"type":"Feature","geometry":{"type":"Point","coordinates":[23.988773,14.584746]},"properties":{"cartodb_id":140,"confirmed":1,"size":3,"id":140,"type":"Castle","name":"Longbow Hall"}},{"type":"Feature","geometry":{"type":"Point","coordinates":[22.428239,15.472475]},"properties":{"cartodb_id":141,"confirmed":1,"size":3,"id":141,"type":"Castle","name":"Snakewood"}},{"type":"Feature","geometry":{"type":"Point","coordinates":[25.437173,15.95839]},"properties":{"cartodb_id":142,"confirmed":0,"size":1,"id":142,"type":"Other","name":"Baelish Keep"}},{"type":"Feature","geometry":{"type":"Point","coordinates":[21.904946,16.631195]},"properties":{"cartodb_id":143,"confirmed":1,"size":3,"id":143,"type":"Castle","name":"Coldwater"}},{"type":"Feature","geometry":{"type":"Point","coordinates":[13.074378,13.295203]},"properties":{"cartodb_id":144,"confirmed":1,"size":3,"id":144,"type":"Castle","name":"Seagard"}},{"type":"Feature","geometry":{"type":"Point","coordinates":[13.298646,14.472612]},"properties":{"cartodb_id":145,"confirmed":1,"size":3,"id":145,"type":"City","name":"The Twins"}},{"type":"Feature","geometry":{"type":"Point","coordinates":[13.167823,14.313755]},"properties":{"cartodb_id":146,"confirmed":1,"size":3,"id":146,"type":"Castle","name":null}},{"type":"Feature","geometry":{"type":"Point","coordinates":[14.242442,17.01432]},"properties":{"cartodb_id":147,"confirmed":1,"size":3,"id":147,"type":"Castle","name":"Greywater Watch"}},{"type":"Feature","geometry":{"type":"Point","coordinates":[14.821802,20.154078]},"properties":{"cartodb_id":148,"confirmed":1,"size":2,"id":148,"type":"Ruin","name":"Moat Cailin"}},{"type":"Feature","geometry":{"type":"Point","coordinates":[18.802566,18.285175]},"properties":{"cartodb_id":149,"confirmed":1,"size":4,"id":149,"type":"Town","name":"Sisterton"}},{"type":"Feature","geometry":{"type":"Point","coordinates":[18.129761,19.228971]},"properties":{"cartodb_id":150,"confirmed":1,"size":3,"id":150,"type":"Castle","name":"Oldcastle"}},{"type":"Feature","geometry":{"type":"Point","coordinates":[16.933663,21.368865]},"properties":{"cartodb_id":151,"confirmed":1,"size":5,"id":151,"type":"City","name":"White Harbor"}},{"type":"Feature","geometry":{"type":"Point","coordinates":[21.204107,22.471518]},"properties":{"cartodb_id":152,"confirmed":1,"size":3,"id":152,"type":"Castle","name":"Ramsgate"}},{"type":"Feature","geometry":{"type":"Point","coordinates":[24.222386,21.901503]},"properties":{"cartodb_id":153,"confirmed":1,"size":3,"id":153,"type":"Castle","name":"Widow's Watch"}},{"type":"Feature","geometry":{"type":"Point","coordinates":[18.980112,24.919782]},"properties":{"cartodb_id":154,"confirmed":0,"size":3,"id":154,"type":"Castle","name":"Hornwood"}},{"type":"Feature","geometry":{"type":"Point","coordinates":[18.596987,25.9103]},"properties":{"cartodb_id":155,"confirmed":0,"size":1,"id":155,"type":"Other","name":"Tower"}},{"type":"Feature","geometry":{"type":"Point","coordinates":[19.914564,27.3587]},"properties":{"cartodb_id":156,"confirmed":1,"size":3,"id":156,"type":"Castle","name":"The Dreadfort"}},{"type":"Feature","geometry":{"type":"Point","coordinates":[14.597534,26.059813]},"properties":{"cartodb_id":157,"confirmed":0,"size":3,"id":157,"type":"Castle","name":"Cerwyn"}},{"type":"Feature","geometry":{"type":"Point","coordinates":[14.803113,26.826063]},"properties":{"cartodb_id":158,"confirmed":0,"size":1,"id":158,"type":"Other","name":"Holdfast"}},{"type":"Feature","geometry":{"type":"Point","coordinates":[14.560156,26.611139]},"properties":{"cartodb_id":159,"confirmed":1,"size":3,"id":159,"type":"City","name":"Winterfell"}},{"type":"Feature","geometry":{"type":"Point","coordinates":[14.130308,26.826063]},"properties":{"cartodb_id":160,"confirmed":0,"size":1,"id":160,"type":"Other","name":"Crofters' Village"}},{"type":"Feature","geometry":{"type":"Point","coordinates":[14.191047,27.601658]},"properties":{"cartodb_id":161,"confirmed":0,"size":1,"id":161,"type":"Other","name":"Tumbledown Tower"}},{"type":"Feature","geometry":{"type":"Point","coordinates":[10.65882,29.358427]},"properties":{"cartodb_id":162,"confirmed":1,"size":3,"id":162,"type":"Castle","name":"Deepwood Motte"}},{"type":"Feature","geometry":{"type":"Point","coordinates":[19.36791,31.33012]},"properties":{"cartodb_id":163,"confirmed":1,"size":3,"id":163,"type":"Castle","name":"Last Hearth"}},{"type":"Feature","geometry":{"type":"Point","coordinates":[23.638354,29.498595]},"properties":{"cartodb_id":164,"confirmed":1,"size":3,"id":164,"type":"Castle","name":"Karhold"}},{"type":"Feature","geometry":{"type":"Point","coordinates":[18.153123,33.787728]},"properties":{"cartodb_id":165,"confirmed":1,"size":1,"id":165,"type":"Other","name":"Queenscrown"}},{"type":"Feature","geometry":{"type":"Point","coordinates":[18.853961,34.890381]},"properties":{"cartodb_id":166,"confirmed":1,"size":3,"id":166,"type":"City","name":"Castle Black"}},{"type":"Feature","geometry":{"type":"Point","coordinates":[18.881995,34.600701]},"properties":{"cartodb_id":167,"confirmed":0,"size":1,"id":167,"type":"Other","name":"Mole's Town"}},{"type":"Feature","geometry":{"type":"Point","coordinates":[16.358975,34.993171]},"properties":{"cartodb_id":168,"confirmed":1,"size":3,"id":168,"type":"Castle","name":"Shadow Tower"}},{"type":"Feature","geometry":{"type":"Point","coordinates":[16.050606,34.993171]},"properties":{"cartodb_id":169,"confirmed":1,"size":1,"id":169,"type":"Other","name":"Westwatch-by-the-Bridge"}},{"type":"Feature","geometry":{"type":"Point","coordinates":[16.709395,35.016532]},"properties":{"cartodb_id":170,"confirmed":1,"size":1,"id":170,"type":"Other","name":"Sentinel Stand"}},{"type":"Feature","geometry":{"type":"Point","coordinates":[17.073831,34.927759]},"properties":{"cartodb_id":171,"confirmed":1,"size":1,"id":171,"type":"Other","name":"Greyguard"}},{"type":"Feature","geometry":{"type":"Point","coordinates":[17.414906,35.05391]},"properties":{"cartodb_id":172,"confirmed":1,"size":1,"id":172,"type":"Other","name":"Stonedoor"}},{"type":"Feature","geometry":{"type":"Point","coordinates":[17.653191,35.039893]},"properties":{"cartodb_id":173,"confirmed":1,"size":1,"id":173,"type":"Other","name":"Hoarfrost Hill"}},{"type":"Feature","geometry":{"type":"Point","coordinates":[17.933526,34.993171]},"properties":{"cartodb_id":174,"confirmed":1,"size":1,"id":174,"type":"Other","name":"Icemark"}},{"type":"Feature","geometry":{"type":"Point","coordinates":[18.167139,34.95112]},"properties":{"cartodb_id":175,"confirmed":1,"size":1,"id":175,"type":"Other","name":"Nightfort"}},{"type":"Feature","geometry":{"type":"Point","coordinates":[18.35403,34.913742]},"properties":{"cartodb_id":176,"confirmed":1,"size":1,"id":176,"type":"Other","name":"Deep Lake"}},{"type":"Feature","geometry":{"type":"Point","coordinates":[18.568954,34.871692]},"properties":{"cartodb_id":177,"confirmed":1,"size":1,"id":177,"type":"Other","name":"Queensgate"}},{"type":"Feature","geometry":{"type":"Point","coordinates":[19.134297,34.810953]},"properties":{"cartodb_id":178,"confirmed":1,"size":1,"id":178,"type":"Other","name":"Oakensheild"}},{"type":"Feature","geometry":{"type":"Point","coordinates":[19.372582,34.796936]},"properties":{"cartodb_id":179,"confirmed":1,"size":1,"id":179,"type":"Other","name":"Woodswatch-by-the-Pool"}},{"type":"Feature","geometry":{"type":"Point","coordinates":[19.680951,34.750213]},"properties":{"cartodb_id":180,"confirmed":1,"size":1,"id":180,"type":"Other","name":"Sable Hall"}},{"type":"Feature","geometry":{"type":"Point","coordinates":[19.965959,34.731524]},"properties":{"cartodb_id":181,"confirmed":1,"size":1,"id":181,"type":"Other","name":"Rimegate"}},{"type":"Feature","geometry":{"type":"Point","coordinates":[20.190227,34.694146]},"properties":{"cartodb_id":182,"confirmed":1,"size":1,"id":182,"type":"Other","name":"Long Barrow"}},{"type":"Feature","geometry":{"type":"Point","coordinates":[20.409823,34.670785]},"properties":{"cartodb_id":183,"confirmed":1,"size":1,"id":183,"type":"Other","name":"Torches"}},{"type":"Feature","geometry":{"type":"Point","coordinates":[20.573352,34.628735]},"properties":{"cartodb_id":184,"confirmed":1,"size":1,"id":184,"type":"Other","name":"Greenguard"}},{"type":"Feature","geometry":{"type":"Point","coordinates":[20.718192,34.792264]},"properties":{"cartodb_id":185,"confirmed":1,"size":3,"id":185,"type":"Castle","name":"Eastwatch-by-the-Sea"}},{"type":"Feature","geometry":{"type":"Point","coordinates":[18.167139,35.409002]},"properties":{"cartodb_id":186,"confirmed":1,"size":1,"id":186,"type":"Other","name":"Whitetree"}},{"type":"Feature","geometry":{"type":"Point","coordinates":[17.625157,36.296731]},"properties":{"cartodb_id":187,"confirmed":1,"size":1,"id":187,"type":"Other","name":"Craster's Keep"}},{"type":"Feature","geometry":{"type":"Point","coordinates":[16.242169,37.212493]},"properties":{"cartodb_id":188,"confirmed":1,"size":1,"id":188,"type":"Other","name":"Fist of the First Men"}},{"type":"Feature","geometry":{"type":"Point","coordinates":[5.140883,24.480589]},"properties":{"cartodb_id":189,"confirmed":0,"size":1,"id":189,"type":"Other","name":"Fishing Village"}},{"type":"Feature","geometry":{"type":"Point","coordinates":[15.513297,8.926641]},"properties":{"cartodb_id":190,"confirmed":0,"size":1,"id":190,"type":"Other","name":"Pennytree"}},{"type":"Feature","geometry":{"type":"Point","coordinates":[31.693327,-8.996142]},"properties":{"cartodb_id":191,"confirmed":1,"size":5,"id":191,"type":"City","name":"Lys"}},{"type":"Feature","geometry":{"type":"Point","coordinates":[28.511519,-3.562306]},"properties":{"cartodb_id":192,"confirmed":1,"size":5,"id":192,"type":"City","name":"Tyrosh"}},{"type":"Feature","geometry":{"type":"Point","coordinates":[33.697726,-2.590476]},"properties":{"cartodb_id":193,"confirmed":1,"size":5,"id":193,"type":"City","name":"Myr"}},{"type":"Feature","geometry":{"type":"Point","coordinates":[31.127984,4.632835]},"properties":{"cartodb_id":194,"confirmed":1,"size":5,"id":194,"type":"City","name":"Pentos"}},{"type":"Feature","geometry":{"type":"Point","coordinates":[35.099404,5.595321]},"properties":{"cartodb_id":195,"confirmed":1,"size":2,"id":195,"type":"Ruin","name":"Ghoyan Drohe"}},{"type":"Feature","geometry":{"type":"Point","coordinates":[38.313918,8.763112]},"properties":{"cartodb_id":196,"confirmed":1,"size":5,"id":196,"type":"City","name":"Norvos"}},{"type":"Feature","geometry":{"type":"Point","coordinates":[24.79941,0.271282]},"properties":{"cartodb_id":197,"confirmed":1,"size":3,"id":197,"type":"Castle","name":"Evenfall Hall"}},{"type":"Feature","geometry":{"type":"Point","coordinates":[24.276117,1.401969]},"properties":{"cartodb_id":198,"confirmed":0,"size":1,"id":198,"type":"Other","name":"Parchments"}},{"type":"Feature","geometry":{"type":"Point","coordinates":[30.976136,16.241061]},"properties":{"cartodb_id":199,"confirmed":1,"size":3,"id":199,"type":"Castle","name":"Braavos"}},{"type":"Feature","geometry":{"type":"Point","coordinates":[36.227754,14.783317]},"properties":{"cartodb_id":200,"confirmed":1,"size":3,"id":200,"type":"Castle","name":"Lorath"}},{"type":"Feature","geometry":{"type":"Point","coordinates":[44.955533,4.747306]},"properties":{"cartodb_id":201,"confirmed":1,"size":5,"id":201,"type":"City","name":"Qohor"}},{"type":"Feature","geometry":{"type":"Point","coordinates":[42.021355,2.579378]},"properties":{"cartodb_id":202,"confirmed":1,"size":2,"id":202,"type":"Ruin","name":"Ar Noy"}},{"type":"Feature","geometry":{"type":"Point","coordinates":[38.713396,3.30825]},"properties":{"cartodb_id":203,"confirmed":1,"size":2,"id":203,"type":"Ruin","name":"Ny Sar"}},{"type":"Feature","geometry":{"type":"Point","coordinates":[40.488854,-1.887301]},"properties":{"cartodb_id":204,"confirmed":1,"size":2,"id":204,"type":"Ruin","name":"The Sorrows (Chroyane)"}},{"type":"Feature","geometry":{"type":"Point","coordinates":[41.236415,-5.344772]},"properties":{"cartodb_id":205,"confirmed":1,"size":4,"id":205,"type":"Town","name":"Selhorys"}},{"type":"Feature","geometry":{"type":"Point","coordinates":[41.180348,-7.13892]},"properties":{"cartodb_id":206,"confirmed":1,"size":4,"id":206,"type":"Town","name":"Valysar"}},{"type":"Feature","geometry":{"type":"Point","coordinates":[41.92791,-8.260262]},"properties":{"cartodb_id":207,"confirmed":1,"size":4,"id":207,"type":"Town","name":"Volon Therys"}},{"type":"Feature","geometry":{"type":"Point","coordinates":[42.376446,-8.166817]},"properties":{"cartodb_id":208,"confirmed":1,"size":2,"id":208,"type":"Ruin","name":"Sar Mell"}},{"type":"Feature","geometry":{"type":"Point","coordinates":[43.637956,-9.213402]},"properties":{"cartodb_id":209,"confirmed":1,"size":5,"id":209,"type":"City","name":"Volantis"}},{"type":"Feature","geometry":{"type":"Point","coordinates":[56.533389,-11.647649]},"properties":{"cartodb_id":212,"confirmed":1,"size":5,"id":212,"type":"City","name":"Mantarys"}},{"type":"Feature","geometry":{"type":"Point","coordinates":[52.889028,-16.301219]},"properties":{"cartodb_id":213,"confirmed":1,"size":2,"id":213,"type":"Ruin","name":null}},{"type":"Feature","geometry":{"type":"Point","coordinates":[55.869929,-18.534558]},"properties":{"cartodb_id":214,"confirmed":1,"size":2,"id":214,"type":"Ruin","name":"Oros"}},{"type":"Feature","geometry":{"type":"Point","coordinates":[57.729488,-13.768854]},"properties":{"cartodb_id":215,"confirmed":1,"size":5,"id":215,"type":"City","name":"Elyria"}},{"type":"Feature","geometry":{"type":"Point","coordinates":[59.131165,-13.217528]},"properties":{"cartodb_id":216,"confirmed":1,"size":5,"id":216,"type":"City","name":"Tolos"}},{"type":"Feature","geometry":{"type":"Point","coordinates":[60.691699,-15.273322]},"properties":{"cartodb_id":217,"confirmed":1,"size":2,"id":217,"type":"Ruin","name":"Ghozai"}},{"type":"Feature","geometry":{"type":"Point","coordinates":[61.046791,-17.132881]},"properties":{"cartodb_id":218,"confirmed":1,"size":2,"id":218,"type":"Ruin","name":"Velos"}},{"type":"Feature","geometry":{"type":"Point","coordinates":[64.915421,-15.235944]},"properties":{"cartodb_id":220,"confirmed":1,"size":5,"id":220,"type":"City","name":"Astapor"}},{"type":"Feature","geometry":{"type":"Point","coordinates":[65.849873,-11.245835]},"properties":{"cartodb_id":221,"confirmed":1,"size":5,"id":221,"type":"City","name":"Yunkai"}},{"type":"Feature","geometry":{"type":"Point","coordinates":[67.130072,-9.610544]},"properties":{"cartodb_id":222,"confirmed":1,"size":5,"id":222,"type":"City","name":"Meereen"}},{"type":"Feature","geometry":{"type":"Point","coordinates":[73.035806,-7.13892]},"properties":{"cartodb_id":223,"confirmed":0,"size":1,"id":223,"type":"Other","name":"Lhazarene Village"}},{"type":"Feature","geometry":{"type":"Point","coordinates":[64.938782,-1.144412]},"properties":{"cartodb_id":224,"confirmed":0,"size":5,"id":224,"type":"City","name":"Vaes Dothrak"}},{"type":"Feature","geometry":{"type":"Point","coordinates":[65.807822,-19.702623]},"properties":{"cartodb_id":225,"confirmed":1,"size":2,"id":225,"type":"Ruin","name":"Old Ghis"}},{"type":"Feature","geometry":{"type":"Point","coordinates":[66.770308,-23.571253]},"properties":{"cartodb_id":226,"confirmed":1,"size":5,"id":226,"type":"City","name":"New Ghis"}},{"type":"Feature","geometry":{"type":"Point","coordinates":[64.639758,-31.205723]},"properties":{"cartodb_id":227,"confirmed":1,"size":2,"id":227,"type":"Ruin","name":"Zamettar"}},{"type":"Feature","geometry":{"type":"Point","coordinates":[65.691016,-33.976372]},"properties":{"cartodb_id":228,"confirmed":1,"size":2,"id":228,"type":"Ruin","name":"Yeen"}},{"type":"Feature","geometry":{"type":"Point","coordinates":[61.392538,-33.602591]},"properties":{"cartodb_id":229,"confirmed":1,"size":2,"id":229,"type":"Ruin","name":"Gogossos"}},{"type":"Feature","geometry":{"type":"Point","coordinates":[8.016658,18.511779]},"properties":{"cartodb_id":230,"confirmed":1,"size":3,"id":230,"type":"Castle","name":"Flint's Finger"}},{"type":"Feature","geometry":{"type":"Point","coordinates":[11.203138,21.857116]},"properties":{"cartodb_id":231,"confirmed":1,"size":4,"id":231,"type":"Town","name":"Barrowton"}},{"type":"Feature","geometry":{"type":"Point","coordinates":[11.866599,24.604404]},"properties":{"cartodb_id":232,"confirmed":1,"size":3,"id":232,"type":"Castle","name":"Torrhen's Square"}},{"type":"Feature","geometry":{"type":"Point","coordinates":[62.193837,-10.130149]},"properties":{"cartodb_id":233,"confirmed":1,"size":2,"id":233,"type":"Ruin","name":"Bhorash"}},{"type":"Feature","geometry":{"type":"Point","coordinates":[7.548877,11.060547]},"properties":{"cartodb_id":234,"confirmed":1,"size":3,"id":234,"type":"City","name":"Pyke"}},{"type":"Feature","geometry":{"type":"Point","coordinates":[7.043347,11.585773]},"properties":{"cartodb_id":235,"confirmed":0,"size":1,"id":235,"type":"Other","name":"Pebbleton"}},{"type":"Feature","geometry":{"type":"Point","coordinates":[6.09794,11.854951]},"properties":{"cartodb_id":236,"confirmed":0,"size":1,"id":236,"type":"Other","name":"Hammerhorn"}},{"type":"Feature","geometry":{"type":"Point","coordinates":[6.616601,12.130695]},"properties":{"cartodb_id":237,"confirmed":0,"size":1,"id":237,"type":"Other","name":"Nagga's Ribs"}},{"type":"Feature","geometry":{"type":"Point","coordinates":[6.820126,12.314524]},"properties":{"cartodb_id":238,"confirmed":0,"size":1,"id":238,"type":"Other","name":"Castle Goodbrother"}},{"type":"Feature","geometry":{"type":"Point","coordinates":[9.131122,12.137261]},"properties":{"cartodb_id":239,"confirmed":1,"size":3,"id":239,"type":"Castle","name":"Ten Towers"}},{"type":"Feature","geometry":{"type":"Point","coordinates":[7.003955,7.351136]},"properties":{"cartodb_id":240,"confirmed":1,"size":3,"id":240,"type":"Castle","name":"Faircastle"}},{"type":"Feature","geometry":{"type":"Point","coordinates":[55.383862,-19.967197]},"properties":{"cartodb_id":241,"confirmed":1,"size":2,"id":241,"type":"Ruin","name":"Tyria"}},{"type":"Feature","geometry":{"type":"Point","coordinates":[54.753591,-22.232235]},"properties":{"cartodb_id":242,"confirmed":1,"size":2,"id":242,"type":"Ruin","name":"Valyria"}},{"type":"Feature","geometry":{"type":"Point","coordinates":[57.799903,-21.93023]},"properties":{"cartodb_id":243,"confirmed":1,"size":2,"id":243,"type":"Ruin","name":null}},{"type":"Feature","geometry":{"type":"Point","coordinates":[52.317854,-20.774732]},"properties":{"cartodb_id":244,"confirmed":1,"size":2,"id":244,"type":"Ruin","name":null}},{"type":"Feature","geometry":{"type":"Point","coordinates":[54.083927,-24.641711]},"properties":{"cartodb_id":245,"confirmed":1,"size":2,"id":245,"type":"Ruin","name":null}},{"type":"Feature","geometry":{"type":"Point","coordinates":[87.984002,-34.588184]},"properties":{"cartodb_id":246,"confirmed":0,"size":5,"id":246,"type":"City","name":"Qarth"}},{"type":"Feature","geometry":{"type":"Point","coordinates":[7.686749,-1.922391]},"properties":{"cartodb_id":247,"confirmed":0,"size":1,"id":247,"type":"Other","name":"Lord Hewett's Town"}},{"type":"Feature","geometry":{"type":"Point","coordinates":[19.984131,27.288808]},"properties":{"cartodb_id":248,"confirmed":1,"size":3,"id":248,"type":"City","name":"The Dreadfort"}}]}